City_ID,City,Lat,Lng,Max Temp,Humidity,Cloudiness,Wind Speed,Country,Date
0,mejit,10.2753,170.8646,28.61,79,100,6.87,MH,1689981147
1,ulladulla,-35.35,150.4667,11.61,52,58,2.84,AU,1689981147
2,chonchi,-42.6128,-73.8092,7.84,94,100,1.43,CL,1689981147
3,port-aux-francais,-49.35,70.2167,0.93,61,100,14.06,TF,1689981147
4,puerto natales,-51.7236,-72.4875,-2.78,96,100,1.61,CL,1689981144
5,adamstown,-25.066,-130.1015,21.08,72,50,13.66,PN,1689981147
6,albany,42.6001,-73.9662,23.63,82,3,0.89,US,1689981125
7,oslo,59.9127,10.7461,12.61,92,100,0.52,NO,1689981077
8,port alfred,-33.5906,26.891,19.38,51,86,8.49,ZA,1689981148
9,mount gambier,-37.8333,140.7667,9.05,92,60,3.8,AU,1689981148
10,cidade velha,14.9167,-23.6167,27.26,74,20,5.14,CV,1689981148
11,constantia,44.1833,28.65,20.39,83,0,4.72,RO,1689981069
12,edinburgh of the seven seas,-37.0676,-12.3116,12.43,67,100,7.54,SH,1689981148
13,yellowknife,62.456,-114.3525,26.29,29,100,5.66,CA,1689981148
14,bredasdorp,-34.5322,20.0403,7.14,72,97,1.89,ZA,1689981149
15,cabo san lucas,22.8909,-109.9124,37.01,83,0,1.54,MX,1689980583
16,yatou,37.15,122.3833,24.67,96,100,8.94,CN,1689981149
17,usinsk,65.9939,57.5281,16.35,95,100,5.25,RU,1689981149
18,ust-nera,64.5667,143.2,15.41,93,100,2.84,RU,1689981149
19,atafu village,-8.5421,-172.5159,28.74,70,71,4.56,TK,1689981149
20,puerto ayora,-0.7393,-90.3518,25.38,80,67,5.33,EC,1689981150
21,east london,-33.0153,27.9116,17.88,51,90,6.75,ZA,1689981150
22,ar raqqah,35.95,39.0167,29.1,42,0,8.54,SY,1689981150
23,st. john's,47.5649,-52.7093,22.66,78,20,4.12,CA,1689981150
24,sisimiut,66.9395,-53.6735,6.39,92,100,1.45,GL,1689981150
25,udachny,66.4167,112.4,20.25,72,82,7.34,RU,1689981150
26,blackmans bay,-43.0167,147.3167,8.18,85,55,3.04,AU,1689981150
27,karliova,39.2983,41.0142,16.4,72,0,2.91,TR,1689981151
28,port elizabeth,-33.918,25.5701,11.17,81,0,2.06,ZA,1689981151
29,letlhakeng,-24.0944,25.0298,10.31,88,16,5.38,BW,1689981082
30,hassi messaoud,31.6804,6.0729,34.92,10,0,2.06,DZ,1689981151
31,haiku-pauwela,20.9219,-156.3051,30.01,51,40,11.32,US,1689981151
32,malabar,-33.9667,151.25,11.55,58,20,6.69,AU,1689981151
33,tiksi,71.6872,128.8694,10.66,55,30,4.24,RU,1689981151
34,ocean city,39.2776,-74.5746,28.9,65,42,1.52,US,1689981152
35,waitangi,-43.9535,-176.5597,12.12,95,100,2.24,NZ,1689980923
36,grytviken,-54.2811,-36.5092,3.31,95,100,7.34,GS,1689981152
37,west island,-12.1568,96.8225,24.99,78,40,5.66,CC,1689981152
38,zheleznogorsk-ilimskiy,56.5768,104.1217,17.47,66,12,0.88,RU,1689981152
39,murghob,38.1702,73.9667,11.11,74,93,2.32,TJ,1689981152
40,dungarvan,52.0881,-7.6253,14.75,100,100,4.02,IE,1689981153
41,hawaiian paradise park,19.5933,-154.9731,28.73,81,40,4.63,US,1689981153
42,alaghsas,17.0187,8.0168,31.64,41,84,6.15,NE,1689981153
43,berdigestyakh,62.0989,126.6992,17.77,56,31,2.95,RU,1689981153
44,dwarka,22.2394,68.9678,27.93,84,100,6.19,IN,1689981153
45,geraldton,-28.7667,114.6,9.23,93,0,3.6,AU,1689981154
46,borkum,53.5809,6.6915,14.97,76,42,8.99,DE,1689981154
47,saynshand,44.8824,110.1163,17.96,64,81,5.42,MN,1689981154
48,gamba,-2.65,10.0,21.13,87,12,2.41,GA,1689981154
49,la'ie,21.6477,-157.9253,29.98,68,70,1.79,US,1689981154
50,yung shue wan,22.2333,114.1167,29.26,83,83,2.18,HK,1689981155
51,bereznik,62.8551,42.7072,12.88,97,100,2.48,RU,1689981155
52,margherita,27.2833,95.6833,26.18,86,100,0.65,IN,1689981155
53,dangriga,16.9692,-88.2321,28.88,77,100,3.49,BZ,1689981155
54,bethel,41.3712,-73.414,27.05,74,0,2.57,US,1689980896
55,fort st. john,56.2499,-120.8529,24.94,44,75,4.12,CA,1689981135
56,coquimbo,-29.9533,-71.3436,13.85,88,0,2.06,CL,1689980900
57,port mathurin,-19.6833,63.4167,22.66,79,62,7.49,MU,1689981155
58,lorengau,-2.0226,147.2712,28.24,77,71,2.13,PG,1689981156
59,manokwari,-0.8667,134.0833,26.82,75,94,1.44,ID,1689981156
60,monticello,45.3055,-93.7941,28.97,43,0,4.12,US,1689981156
61,margaret river,-33.95,115.0667,11.03,78,1,1.52,AU,1689981156
62,akureyri,65.6835,-18.0878,11.96,76,75,0.0,IS,1689981156
63,curillo,1.0333,-75.9191,22.16,96,100,1.55,CO,1689981156
64,kuraymah,18.55,31.85,35.46,13,51,4.44,SD,1689981157
65,kirkland lake,48.1446,-80.0377,22.16,46,17,4.12,CA,1689981157
66,mchinji,-13.7984,32.8802,12.52,84,0,1.77,MW,1689980893
67,isafjordur,66.0755,-23.124,11.04,69,94,1.65,IS,1689981157
68,al mansurah,31.0364,31.3807,23.86,74,0,1.91,EG,1689981157
69,klyuchi,52.2667,79.1667,18.23,79,96,3.13,RU,1689981157
70,sankeshwar,16.2667,74.4833,21.44,96,100,4.53,IN,1689981157
71,murzuq,25.9155,13.9184,30.66,17,0,3.87,LY,1689981158
72,kirensk,57.7853,108.1119,18.63,67,10,1.17,RU,1689981158
73,stanley,54.868,-1.6985,12.25,92,20,2.06,GB,1689981158
74,mar del plata,-38.0023,-57.5575,16.08,90,100,4.92,AR,1689981158
75,juneau,58.3019,-134.4197,17.34,92,100,2.06,US,1689981158
76,thompson,55.7435,-97.8558,21.09,64,75,5.14,CA,1689981158
77,midvagur,62.0511,-7.1939,11.46,82,100,3.09,FO,1689981158
78,tsiombe,-25.3,45.4833,18.43,64,20,5.45,MG,1689981159
79,tympaki,35.0729,24.7685,30.12,40,0,0.89,GR,1689981159
80,berriozabal,16.8,-93.2667,26.18,95,85,2.44,MX,1689981159
81,urangan,-25.3,152.9,17.81,52,0,5.12,AU,1689981159
82,dunedin,-45.8742,170.5036,8.22,64,13,3.58,NZ,1689980988
83,delesti,46.7,27.55,21.16,54,53,5.31,RO,1689981159
84,flying fish cove,-10.4217,105.6791,23.82,83,100,7.2,CX,1689981160
85,ayvacik,39.6011,26.4047,24.32,60,0,2.65,TR,1689981160
86,portland,45.5234,-122.6762,32.56,39,0,3.6,US,1689980572
87,hasaki,35.7333,140.8333,27.38,74,10,4.38,JP,1689981160
88,college,64.8569,-147.8028,25.61,46,20,1.54,US,1689981160
89,carnarvon,-24.8667,113.6333,13.47,36,0,9.71,AU,1689981160
90,island harbour,50.724,-1.2758,15.56,76,43,0.45,GB,1689981161
91,divnoye,45.9089,43.3547,23.18,52,6,3.51,RU,1689981161
92,faro,37.0194,-7.9322,22.32,60,0,5.14,PT,1689981161
93,qaqortoq,60.7167,-46.0333,7.41,91,33,0.35,GL,1689981161
94,bodo,67.28,14.405,12.65,96,100,1.54,NO,1689981161
95,igarka,67.4667,86.5833,17.31,73,74,4.01,RU,1689981162
96,mao,39.8885,4.2658,25.31,69,0,4.63,ES,1689981162
97,plastun,44.7561,136.2939,22.27,72,56,1.84,RU,1689981162
98,ushuaia,-54.8,-68.3,-8.43,90,41,1.9,AR,1689981162
99,wailua homesteads,22.0669,-159.378,28.24,84,100,5.14,US,1689981162
100,nanga eboko,4.6833,12.3667,20.35,99,95,1.53,CM,1689981162
101,codrington,-38.2667,141.9667,10.0,87,99,5.44,AU,1689981163
102,remire-montjoly,4.9167,-52.2667,25.02,94,28,1.03,GF,1689981163
103,mangrol,21.1167,70.1167,27.49,86,94,6.44,IN,1689981163
104,iqaluit,63.7506,-68.5145,6.85,87,75,1.03,CA,1689981163
105,goure,13.9835,10.2704,30.38,41,18,2.72,NE,1689981163
106,longyearbyen,78.2186,15.6401,6.91,87,100,4.63,SJ,1689981164
107,lihue,21.9789,-159.3672,28.58,83,100,5.14,US,1689981099
108,hermanus,-34.4187,19.2345,10.96,61,98,2.7,ZA,1689981164
109,tazovsky,67.4667,78.7,16.7,71,99,2.69,RU,1689981164
110,pisco,-13.7,-76.2167,20.03,73,0,6.69,PE,1689981164
111,mezhdurechensk,53.6942,88.0603,15.73,90,27,1.55,RU,1689981164
112,tsetserleg,47.475,101.4542,12.78,98,100,0.78,MN,1689981165
113,silveira,39.1112,-9.3643,19.82,91,37,4.02,PT,1689981165
114,aktau,43.65,51.2,28.32,44,39,3.0,KZ,1689981165
115,mungwi,-10.1732,31.3694,12.3,63,0,2.01,ZM,1689981165
116,tchintabaraden,15.8969,5.7985,29.57,50,77,4.04,NE,1689981165
117,naze,28.3667,129.4833,26.68,75,97,2.12,JP,1689981165
118,saipan,15.1355,145.701,29.39,100,75,7.2,MP,1689981166
119,varna,43.2167,27.9167,23.58,94,0,1.03,BG,1689981166
120,khadan khak,30.7477,67.7085,24.64,61,89,0.6,PK,1689981166
121,arkansas city,37.062,-97.0384,28.12,57,100,2.57,US,1689980880
122,susuman,62.7833,148.1667,22.98,46,96,2.22,RU,1689981166
123,ancud,-41.8697,-73.8203,9.15,86,100,5.93,CL,1689981166
124,margate,51.3813,1.3862,14.94,82,99,1.34,GB,1689981056
125,isetskoye,56.4858,65.3226,13.24,82,29,3.51,RU,1689981167
126,saldanha,-33.0117,17.9442,11.22,64,100,1.09,ZA,1689981167
127,isangel,-19.55,169.2667,24.06,57,75,1.03,VU,1689981167
128,borovichi,58.3878,33.9155,12.68,81,34,3.75,RU,1689981167
129,illizi,26.4833,8.4667,30.89,12,0,4.73,DZ,1689981167
130,miracema do tocantins,-9.5618,-48.3967,24.95,35,0,2.04,BR,1689981167
131,marang,5.2056,103.2059,25.3,89,97,1.95,MY,1689981168
132,orchard homes,46.8633,-114.0484,37.08,18,0,2.24,US,1689981168
133,papatowai,-46.5619,169.4708,7.32,68,5,6.29,NZ,1689981168
134,salinopolis,-0.6136,-47.3561,25.17,85,15,5.26,BR,1689981168
135,guerrero negro,27.9769,-114.0611,23.69,62,84,7.84,MX,1689981168
136,estevan,49.1334,-102.9842,28.11,32,0,5.14,CA,1689981168
137,port saint john's,-31.6229,29.5448,14.19,77,83,3.56,ZA,1689981169
138,ngereklmadel,7.4883,134.4856,29.05,79,75,4.63,PW,1689981169
139,pangkalpinang,-2.1333,106.1333,25.31,90,94,3.38,ID,1689981169
140,ilulissat,69.2167,-51.1,6.01,93,75,1.54,GL,1689981169
141,mandiana,10.6333,-8.6833,24.08,85,57,2.6,GN,1689981169
142,praia da vitoria,38.7333,-27.0667,22.09,100,40,0.26,PT,1689981169
143,coahuayana de hidalgo,18.7,-103.6583,31.88,62,27,3.0,MX,1689981170
144,luebo,-5.35,21.4167,23.14,40,36,0.65,CD,1689981170
145,kapuskasing,49.4169,-82.4331,21.05,45,20,3.6,CA,1689981170
146,avarua,-21.2078,-159.775,25.03,61,40,9.26,CK,1689981170
147,ghanzi,-21.5667,21.7833,11.45,83,0,5.12,BW,1689981170
148,hammerfest,70.6634,23.6821,9.25,81,20,5.66,NO,1689981170
149,arauquita,7.0292,-71.4281,23.48,96,99,0.68,CO,1689981170
150,fortaleza,-3.7227,-38.5247,27.34,83,0,4.12,BR,1689980907
151,crane,31.3974,-102.3501,37.74,14,19,6.83,US,1689981171
152,badger,64.8,-147.5333,25.56,44,20,1.54,US,1689981171
153,arkalyk,50.2486,66.9114,15.99,60,32,1.36,KZ,1689981171
154,gagarawa,12.4074,9.5277,28.03,59,53,3.49,NG,1689981171
155,hamilton,39.1834,-84.5333,26.69,60,0,4.12,US,1689981004
156,lagos,6.5833,3.75,27.18,87,86,3.15,NG,1689981171
157,kingston,17.997,-76.7936,32.91,67,20,9.26,JM,1689981172
158,sosnovo-ozerskoye,52.5249,111.5418,13.67,62,100,3.75,RU,1689981172
159,rumonge,-3.9736,29.4386,22.62,49,2,1.0,BI,1689981172
160,slave lake,55.2834,-114.769,25.99,50,0,2.57,CA,1689981172
161,tazacorte,28.629,-17.9293,23.97,66,40,7.2,ES,1689981172
162,nova sintra,14.8667,-24.7167,22.99,83,19,7.26,CV,1689981172
163,bilibino,68.0546,166.4372,23.68,40,37,0.97,RU,1689981172
164,bridgewater,44.3835,-64.5155,20.62,99,66,2.06,CA,1689981173
165,saint-joseph,-21.3667,55.6167,19.15,85,60,6.75,RE,1689981173
166,lata,40.1629,-8.3327,13.48,97,4,0.83,PT,1689981173
167,hadibu,12.65,54.0333,25.87,81,69,11.92,YE,1689981173
168,agadez,19.75,10.25,32.54,10,0,2.77,NE,1689981173
169,bayanhongor,46.7167,100.1167,10.93,80,4,1.52,MN,1689981173
170,port augusta,-32.5,137.7667,9.79,65,45,2.37,AU,1689981174
171,whitehorse,60.7161,-135.0538,26.43,38,75,1.54,CA,1689980472
172,leava,-14.3,-178.1667,27.13,81,36,4.74,WF,1689981174
173,anadyr,64.75,177.4833,19.28,72,20,2.0,RU,1689981174
174,gizo,-8.103,156.8419,27.09,81,100,8.19,SB,1689981174
175,anar darah,32.7587,61.654,28.27,18,3,5.93,AF,1689981174
176,taltal,-25.4,-70.4833,17.29,79,86,1.78,CL,1689981020
177,jamestown,42.097,-79.2353,22.77,72,20,5.66,US,1689981175
178,guane,22.2025,-84.0875,31.93,57,58,3.06,CU,1689981175
179,kotabumi,-4.8333,104.9,22.4,94,13,1.88,ID,1689981175
180,namibe,-15.1961,12.1522,17.86,84,77,2.36,AO,1689981175
181,bonthe,7.5264,-12.505,25.2,89,100,5.11,SL,1689981175
182,cartagena del chaira,1.3349,-74.8429,22.56,95,83,1.55,CO,1689981175
183,arteche,12.2645,125.4048,26.37,90,58,3.21,PH,1689981175
184,fish town,5.1964,-7.8756,21.56,98,63,1.49,LR,1689981176
185,shingu,33.7333,135.9833,27.11,72,0,3.12,JP,1689981176
186,tadpatri,14.9167,78.0167,26.23,71,100,10.04,IN,1689981176
187,gornozavodsk,58.3758,58.3211,11.04,97,74,1.71,RU,1689981176
188,callao,-12.0667,-77.15,22.62,73,100,5.14,PE,1689981176
189,lebu,-37.6167,-73.65,10.58,91,100,3.69,CL,1689981176
190,selfoss,63.9331,-20.9971,10.58,89,64,2.11,IS,1689981177
191,ulanhot,46.0833,122.0833,18.77,96,100,4.22,CN,1689981177
192,cukai,4.25,103.4167,25.3,91,100,2.1,MY,1689981177
193,olonkinbyen,70.9221,-8.7187,5.7,80,100,2.94,SJ,1689981177
194,tambo,-14.8,-73.9167,6.35,51,25,2.63,PE,1689981177
195,south hedland,-20.4089,118.5983,17.96,27,0,7.2,AU,1689981177
196,mata-utu,-13.2816,-176.1745,28.02,79,13,3.49,WF,1689981177
197,brioude,45.1667,3.4167,13.23,88,86,0.57,FR,1689981178
198,invercargill,-46.4,168.35,3.58,70,14,2.72,NZ,1689980983
199,olenino,56.2092,33.4889,9.65,90,27,2.84,RU,1689981178
200,colonia,50.9333,6.95,15.48,74,0,1.03,DE,1689981178
201,gadzhiyevo,69.2551,33.3362,8.32,81,99,6.96,RU,1689981178
202,puerto armuelles,8.2833,-82.8667,28.94,85,100,2.24,PA,1689980891
203,daru,-9.0763,143.2092,25.68,76,96,6.23,PG,1689981178
204,papao,-17.75,-149.55,27.82,62,8,5.02,PF,1689981179
205,chabahar,25.2919,60.643,28.06,83,98,2.78,IR,1689981042
206,thunder bay,48.4001,-89.3168,22.95,49,75,4.12,CA,1689980975
207,prince rupert,54.3161,-130.3201,17.05,88,100,1.03,CA,1689980917
208,cockburn town,21.4612,-71.1419,28.19,79,59,6.18,TC,1689981179
209,abu zabad,12.35,29.25,25.25,61,100,1.88,SD,1689980955
210,bumpe,7.8919,-11.9025,23.34,99,100,1.08,SL,1689981179
211,fale old settlement,-9.3852,-171.2468,28.63,70,94,3.61,TK,1689981179
212,hithadhoo,-0.6,73.0833,27.47,79,90,2.35,MV,1689981180
213,linkou,45.3,130.2833,24.45,83,100,1.22,CN,1689981180
214,tromso,69.6496,18.957,12.01,82,0,2.06,NO,1689981180
215,santa rita,-7.1139,-34.9781,24.37,83,0,2.57,BR,1689981180
216,rajin,42.2489,130.3003,21.13,97,100,1.54,KP,1689981180
217,kodiak,57.79,-152.4072,15.73,72,0,2.06,US,1689981180
218,kapa'a,22.0752,-159.319,28.99,84,100,5.14,US,1689981181
219,georgetown,5.4112,100.3354,27.75,94,20,0.51,MY,1689980904
220,oyem,1.5995,11.5793,20.22,98,94,1.73,GA,1689981181
221,mossel bay,-34.1831,22.146,6.96,65,67,1.06,ZA,1689981181
222,utrik,11.2278,169.8474,28.35,77,92,6.89,MH,1689981181
223,kuusamo,65.9667,29.1833,10.02,94,100,3.44,FI,1689981182
224,carauari,-4.8828,-66.8958,26.42,56,3,0.07,BR,1689981182
225,montepuez,-13.1256,38.9997,19.89,57,100,3.16,MZ,1689981182
226,sheksna,59.21,38.5107,11.62,86,20,3.86,RU,1689981182
227,punta arenas,-53.15,-70.9167,-2.16,92,100,2.68,CL,1689980902
228,alice springs,-23.7,133.8833,2.75,93,0,2.06,AU,1689981182
229,nar'yan-mar,67.6713,53.087,8.12,94,84,6.1,RU,1689981183
230,altinekin,38.3078,32.8686,25.31,46,0,3.47,TR,1689981183
231,wad medani,14.4012,33.5199,31.58,47,46,7.85,SD,1689981183
232,kone,-21.0595,164.8658,20.03,63,78,2.08,NC,1689981183
233,rongelap,11.1635,166.8941,28.46,77,99,6.85,MH,1689981183
234,zaozersk,69.4005,32.4476,8.17,85,100,6.77,RU,1689981183
235,onega,63.9061,38.1404,13.28,99,89,1.16,RU,1689981184
236,nuuk,64.1835,-51.7216,6.34,100,100,4.02,GL,1689981184
237,vikulovo,56.8167,70.6107,14.23,87,100,3.31,RU,1689981184
238,palikir - national government center,6.9248,158.1611,25.47,94,100,3.09,FM,1689981184
239,new plymouth,-39.0667,174.0833,8.51,72,54,6.53,NZ,1689981185
240,alesund,62.4723,6.1549,14.86,86,100,5.14,NO,1689981015
241,vorgashor,67.5833,63.95,15.91,90,58,2.88,RU,1689981185
242,bosaso,11.2842,49.1816,34.25,38,57,12.62,SO,1689981185
243,sao vicente,-23.9631,-46.3919,21.1,26,12,1.37,BR,1689981185
244,coruripe,-10.1256,-36.1756,23.0,76,2,5.15,BR,1689981186
245,galliano,29.4422,-90.2992,35.0,59,75,4.12,US,1689981186
246,inyonga,-6.7167,32.0667,17.2,44,0,3.2,TZ,1689981186
247,okha,53.5739,142.9478,15.94,95,100,4.08,RU,1689981186
248,rabigh,22.7986,39.0349,31.28,58,99,4.09,SA,1689980955
249,gorgan,36.8387,54.4348,25.98,78,75,5.14,IR,1689981187
250,tommot,58.9564,126.2925,16.96,88,78,3.47,RU,1689981187
251,tofol,5.3248,163.0078,27.88,83,100,4.12,FM,1689981187
252,ribeira grande,38.5167,-28.7,20.43,92,96,2.24,PT,1689981187
253,thomasville,35.8826,-80.082,32.11,56,40,4.75,US,1689981118
254,kalmunai,7.4167,81.8167,26.23,66,100,3.15,LK,1689981187
255,mandera,3.9366,41.867,26.49,59,84,8.27,KE,1689981188
256,talnakh,69.4865,88.3972,20.67,75,100,2.6,RU,1689981188
257,torrington,41.8007,-73.1212,24.52,85,15,2.58,US,1689981188
258,tamandare,-8.7597,-35.1047,23.66,75,7,4.9,BR,1689981188
259,hengshui,37.7322,115.7011,23.49,93,92,4.11,CN,1689981188
260,alofi,-19.0595,-169.9187,26.94,83,13,3.09,NU,1689981188
261,pitimbu,-7.4706,-34.8086,24.33,78,16,6.69,BR,1689981189
262,dzilam gonzalez,21.2833,-88.9333,25.2,96,96,3.74,MX,1689981189
263,guangshui,31.6199,113.9978,24.99,96,93,2.18,CN,1689981189
264,neiafu,-18.65,-173.9833,26.38,83,40,4.63,TO,1689981189
265,florence,43.7667,11.25,25.3,77,0,1.54,IT,1689981189
266,saudarkrokur,65.7461,-19.6394,9.51,86,71,1.2,IS,1689981190
267,namtsy,62.7161,129.6658,17.14,50,3,5.81,RU,1689981190
268,bandiagara,14.3501,-3.6104,31.21,46,100,4.28,ML,1689981190
269,inhambane,-23.865,35.3833,17.79,74,46,2.7,MZ,1689981190
270,port blair,11.6667,92.75,26.34,86,100,5.7,IN,1689981190
271,balsas,-7.5325,-46.0356,25.01,29,2,2.5,BR,1689981190
272,kattivakkam,13.2167,80.3167,31.15,66,100,5.54,IN,1689981190
273,argostolion,38.1811,20.489,27.22,50,0,0.77,GR,1689981191
274,essaouira,31.5125,-9.77,23.72,78,7,6.17,MA,1689981191
275,humberto de campos,-2.5983,-43.4611,23.97,78,9,2.24,BR,1689981191
276,jiayuguan,39.8167,98.3,21.81,22,55,0.77,CN,1689981191
277,lerwick,60.1545,-1.1494,11.0,90,17,3.32,GB,1689981191
278,jayapura,-2.5333,140.7,26.66,85,77,1.74,ID,1689980994
279,happy valley-goose bay,53.3168,-60.3315,28.17,30,40,4.12,CA,1689981192
280,yacuiba,-22.038,-63.6797,27.07,37,0,6.95,BO,1689981192
281,richards bay,-28.783,32.0377,14.9,74,44,5.47,ZA,1689981192
282,santo antonio,-6.3106,-35.4789,22.02,76,5,5.59,BR,1689981192
283,fort mcmurray,56.7268,-111.381,27.77,44,0,1.54,CA,1689981192
284,waddan,29.1614,16.139,29.18,31,0,5.49,LY,1689981192
285,luwuk,-0.9516,122.7875,25.3,85,41,2.34,ID,1689981192
286,hinton,53.4001,-117.5857,17.01,87,85,2.41,CA,1689981193
287,la passe,45.5549,-0.8967,17.21,74,0,4.01,FR,1689981193
288,bamboo flat,11.7,92.7167,26.37,86,100,5.57,IN,1689981193
289,weihai,37.5017,122.1136,25.16,92,97,9.18,CN,1689981193
290,port moresby,-9.4431,147.1797,26.68,69,40,10.29,PG,1689981193
291,tarawa,1.419,172.984,30.05,74,75,2.57,KI,1689981193
292,pacific grove,36.6177,-121.9166,33.69,82,0,3.58,US,1689981194
293,queenstown,-31.8976,26.8753,10.38,73,98,6.95,ZA,1689981194
294,ulsteinvik,62.3432,5.8487,14.86,81,45,3.58,NO,1689981194
295,polyarnyy,69.1989,33.4478,8.24,83,97,6.72,RU,1689981194
296,al bardiyah,31.7561,25.0865,26.91,77,0,5.11,LY,1689981194
297,luanda,-8.8368,13.2343,21.0,88,24,2.57,AO,1689981194
298,gul'kevichi,45.3538,40.6946,20.19,74,3,2.06,RU,1689981195
299,lucea,18.451,-78.1736,30.92,76,21,4.09,JM,1689981195
300,marsh harbour,26.5412,-77.0636,30.04,70,38,1.83,BS,1689981195
301,bahir dar,11.5936,37.3908,16.34,93,100,1.36,ET,1689981195
302,mbanza kongo,-6.267,14.2401,19.76,79,100,1.72,AO,1689981195
303,pleiku,13.9833,108.0,19.96,97,100,1.06,VN,1689981196
304,orange walk,17.8333,-88.8333,27.56,84,100,1.58,BZ,1689981196
305,sola,-13.8833,167.55,25.28,79,100,5.97,VU,1689981196
306,astoria,46.1879,-123.8313,24.22,68,0,4.12,US,1689980967
307,mantua,45.1667,10.7833,20.59,89,19,2.24,IT,1689981196
308,zhigalovo,54.8097,105.1578,16.93,64,1,0.64,RU,1689980927
309,enewetak,11.3474,162.3373,28.7,77,87,6.99,MH,1689981197
310,nyurba,63.2842,118.3319,19.53,75,69,1.43,RU,1689981197
311,minab,27.1467,57.0801,31.8,73,42,1.84,IR,1689981197
312,grassano,40.6346,16.2779,22.78,43,0,1.41,IT,1689981197
313,shetpe,44.1667,52.1167,27.72,38,39,1.43,KZ,1689981197
314,antofagasta,-23.65,-70.4,17.6,89,43,4.82,CL,1689980750
315,galle,6.0367,80.217,26.63,88,97,6.81,LK,1689981198
316,carbonear,47.7332,-53.2148,22.91,90,22,3.26,CA,1689981198
317,arafat,21.3594,39.9664,34.65,15,100,1.6,SA,1689981198
318,greymouth,-42.4667,171.2,7.46,67,11,3.64,NZ,1689980961
319,usogorsk,63.4106,48.6872,13.72,98,60,1.85,RU,1689981198
320,lagoa,39.05,-27.9833,20.96,85,47,2.59,PT,1689981198
321,dudinka,69.4058,86.1778,20.9,72,100,3.41,RU,1689981199
322,katsuren-haebaru,26.3369,127.8719,31.21,79,40,4.12,JP,1689981199
323,birsk,55.4211,55.5428,15.47,86,100,5.85,RU,1689981199
324,sarupathar,26.1984,93.8094,25.1,98,100,0.76,IN,1689981199
325,ketchikan,55.3422,-131.6461,17.26,94,100,3.09,US,1689981199
326,toliara,-23.35,43.6667,18.51,70,36,5.95,MG,1689981200
327,kolonia,50.9333,6.95,15.48,74,0,1.03,DE,1689981178
328,urk,52.6625,5.6014,16.1,77,8,5.84,NL,1689981200
329,anloga,5.7947,0.8973,25.43,86,57,7.14,GH,1689981200
330,urussu,54.5981,53.4631,14.89,97,100,2.44,RU,1689981200
331,fortuna,40.5982,-124.1573,20.52,81,75,5.66,US,1689981200
332,krasnyy chikoy,50.3643,108.7512,13.75,96,71,1.03,RU,1689981201
333,new norfolk,-42.7826,147.0587,8.84,84,59,1.19,AU,1689981201
334,nuku'alofa,-21.1333,-175.2,27.19,69,20,2.06,TO,1689981201
335,atbasar,51.8,68.3333,14.75,77,1,3.61,KZ,1689981201
336,oodweyne,9.4092,45.064,23.7,56,77,10.7,SO,1689981201
337,al muwayh,22.4333,41.7583,28.9,18,100,4.43,SA,1689981201
338,susanville,40.4163,-120.653,37.68,11,0,4.02,US,1689981202
339,taoudenni,22.6783,-3.9836,39.26,9,29,5.23,ML,1689981202
340,tura,25.5198,90.2201,23.64,99,100,1.71,IN,1689981202
341,wuhai,39.6647,106.8122,22.23,49,68,0.28,CN,1689981202
342,puerto el triunfo,13.2833,-88.55,31.07,62,29,3.69,SV,1689981202
343,tegueste,28.5167,-16.3167,21.48,89,100,10.28,ES,1689981203
344,cotonou,6.3654,2.4183,25.49,88,71,6.89,BJ,1689980967
345,kourou,5.1552,-52.6478,25.03,87,47,3.51,GF,1689981203
346,savonlinna,61.8699,28.88,15.03,94,20,3.09,FI,1689981203
347,mugia,43.1041,-9.2179,18.84,85,50,8.03,ES,1689981203
348,santa luzia,-19.7697,-43.8514,18.5,70,20,3.09,BR,1689981203
349,hudson falls,43.3006,-73.586,24.06,73,75,2.06,US,1689981204
350,ar rayyan,25.2919,51.4244,32.9,75,0,3.6,QA,1689981204
351,ulaangom,49.9811,92.0667,17.36,64,99,0.87,MN,1689981204
352,khandyga,62.6667,135.6,13.14,95,100,0.79,RU,1689981204
353,sitka,57.0531,-135.33,15.94,82,100,2.06,US,1689981204
354,qoryooley,1.7878,44.53,23.67,90,57,6.76,SO,1689981204
355,yuxia,34.0615,108.6291,24.34,64,0,1.14,CN,1689981205
356,vilyuysk,63.7553,121.6247,17.98,58,9,0.76,RU,1689981205
357,amarwara,22.3,79.1667,23.07,93,100,3.89,IN,1689981205
358,villa gesell,-37.2639,-56.973,20.03,90,100,5.44,AR,1689981206
359,el calafate,-50.3408,-72.2768,-1.43,93,100,1.81,AR,1689981206
360,chernomorskoye,45.5039,32.6997,23.01,61,0,3.47,UA,1689981206
361,uetze,52.4651,10.2047,15.75,83,84,2.57,DE,1689981207
362,luderitz,-26.6481,15.1594,13.68,55,67,3.09,NA,1689981207
363,palmer,42.1584,-72.3287,23.97,77,40,2.57,US,1689981207
364,kaposvar,46.3667,17.8,17.9,96,85,2.38,HU,1689981208
365,santa cruz,-17.8,-63.1667,26.03,57,0,6.17,BO,1689981208
366,amga,60.8953,131.9608,16.94,71,71,3.46,RU,1689981208
367,ust'-kut,56.7938,105.7672,18.13,67,3,0.66,RU,1689981208
368,mendi,-6.1761,143.6513,15.64,91,73,0.65,PG,1689981209
369,vernal,40.4555,-109.5287,32.84,18,0,1.54,US,1689981209
370,porto novo,6.4965,2.6036,25.9,87,74,4.46,BJ,1689981209
371,juchipila,21.4167,-103.1167,32.46,30,43,1.5,MX,1689981209
372,novodvinsk,64.4165,40.8122,14.02,99,60,1.76,RU,1689981037
373,kidal,18.4411,1.4078,33.46,32,100,6.42,ML,1689981209
374,tabou,4.423,-7.3528,24.75,86,66,5.29,CI,1689981210
375,nova vicosa,-17.8919,-39.3719,22.39,66,100,5.74,BR,1689981210
376,balaklava,44.5,33.6,22.99,63,0,3.07,UA,1689981210
377,vitry-le-francois,48.7333,4.5833,15.48,52,98,2.31,FR,1689981210
378,waingapu,-9.6567,120.2641,23.29,77,23,4.86,ID,1689981210
379,cannonvale,-20.2833,148.7,20.66,64,72,0.72,AU,1689981211
380,san luis de la loma,17.2706,-100.8939,30.64,71,45,3.87,MX,1689981211
381,kamaishi,39.2667,141.8833,23.53,77,1,1.71,JP,1689981211
382,eyl,7.9803,49.8164,26.92,70,100,13.56,SO,1689981211
383,praya,14.9215,-23.5087,27.3,74,20,5.14,CV,1689981211
384,leh,34.1667,77.5833,15.73,70,86,2.4,IN,1689981212
385,kiama,-34.6833,150.8667,14.21,63,35,2.24,AU,1689981212
386,barcelos,41.5388,-8.6151,17.6,92,17,1.16,PT,1689981212
387,north battleford,52.7834,-108.2847,26.05,50,20,5.14,CA,1689981212
388,kruisfontein,-34.0033,24.7314,9.94,85,6,3.03,ZA,1689981212
389,nova xavantina,-14.6667,-52.35,23.68,36,0,1.43,BR,1689981212
390,serowe,-22.3833,26.7167,10.5,87,100,5.59,BW,1689981213
391,al hazm,16.1641,44.7769,30.52,37,90,3.22,YE,1689981213
392,tuchow,49.8949,21.0541,17.58,83,100,1.5,PL,1689981213
393,kamiiso,41.8167,140.65,21.21,94,75,1.54,JP,1689981213
394,mbandaka,0.0487,18.2603,23.93,69,96,1.12,CD,1689981213
395,korla,41.7597,86.1469,30.17,22,97,5.98,CN,1689981214
396,yuzhno-kurilsk,44.0306,145.8556,17.14,84,30,4.64,RU,1689981214
397,ghadamis,30.1337,9.5007,34.24,12,0,5.27,LY,1689981214
398,vilyuchinsk,52.9306,158.4028,20.15,80,80,4.33,RU,1689981214
399,saarijarvi,62.7049,25.254,14.53,97,100,2.64,FI,1689981214
400,oak hill,37.9723,-81.1487,24.33,64,99,0.45,US,1689981214
401,rio gallegos,-51.6226,-69.2181,-0.24,74,100,6.77,AR,1689981215
402,borgarnes,64.5383,-21.9206,13.03,83,99,1.47,IS,1689981215
403,mafinga,-7.25,35.0667,18.74,55,6,2.49,TZ,1689981215
404,priargunsk,50.3691,119.1012,14.37,95,100,6.37,RU,1689981215
405,juegang,32.3174,121.1855,27.77,92,95,3.69,CN,1689981215
406,bardai,11.65,7.2333,22.07,82,88,2.28,NG,1689981216
407,ares,-6.1944,-35.1603,25.05,74,20,6.2,BR,1689981216
408,carora,10.1755,-70.0827,31.09,42,95,8.0,VE,1689981216
409,myski,53.709,87.8014,15.8,90,30,1.55,RU,1689981216
410,nemuro,43.3236,145.575,16.27,89,19,5.21,JP,1689981216
411,badr hunayn,23.7829,38.7905,32.13,25,99,0.24,SA,1689981217
412,paramonga,-10.6667,-77.8333,19.99,82,27,4.19,PE,1689981217
413,benito juarez,19.385,-99.165,22.19,63,100,5.14,MX,1689981017
414,kayangel,8.0823,134.7173,27.62,82,100,5.23,PW,1689981217
415,salalah,17.0151,54.0924,25.05,100,100,0.51,OM,1689981217
416,jamaame,0.0697,42.745,24.32,86,87,5.55,SO,1689981217
417,benguela,-12.5763,13.4055,19.53,88,36,3.19,AO,1689981218
418,aguilas,37.4063,-1.5829,26.56,71,4,0.99,ES,1689981218
419,aquidaba,-10.2814,-37.0186,18.67,92,17,2.53,BR,1689981218
420,bocas del toro,9.3333,-82.25,27.34,79,78,2.38,PA,1689981218
421,camana,-16.6228,-72.7111,17.69,82,49,3.11,PE,1689981218
422,saint croix,17.7397,-64.7388,28.25,70,40,3.09,VI,1689981218
423,shakawe,-18.3667,21.85,17.56,46,3,3.98,BW,1689981218
424,mersa matruh,31.3525,27.2453,26.68,75,0,4.62,EG,1689981219
425,sao joao da barra,-21.6403,-41.0511,20.05,63,99,4.63,BR,1689981219
426,kodinsk,58.6881,99.1844,18.32,63,0,1.43,RU,1689981219
427,laguna,38.421,-121.4238,42.97,22,0,4.63,US,1689981219
428,colchani,-20.3,-66.9333,6.59,32,0,1.8,BO,1689981219
429,magadan,59.5667,150.8,19.74,85,93,3.68,RU,1689981219
430,howard springs,-12.497,131.047,23.95,63,16,2.83,AU,1689981219
431,malvan,16.0667,73.4667,26.38,84,100,9.09,IN,1689981220
432,chinde,26.8418,88.0763,19.09,89,86,1.96,NP,1689981220
433,paranagua,-25.52,-48.5092,18.59,93,89,0.89,BR,1689981220
434,tindouf,27.6711,-8.1474,36.25,9,0,0.51,DZ,1689981220
435,keelakarai,9.2333,78.7833,28.59,58,73,8.96,IN,1689981220
436,langarud,37.197,50.1535,24.5,79,52,0.54,IR,1689981220
437,sanming,26.2486,117.6186,26.04,95,90,0.7,CN,1689981221
438,akrehamn,59.2667,5.1833,13.33,76,75,3.6,NO,1689981221
439,oke ila,7.951,4.9883,21.48,99,93,2.14,NG,1689981221
440,al ghayzah,16.2079,52.176,25.37,91,94,2.34,YE,1689981221
441,carambei,-24.9178,-50.0972,12.93,95,20,1.91,BR,1689981221
442,lompoc,34.6391,-120.4579,35.56,73,75,3.6,US,1689981221
443,shagonar,51.5333,92.8,15.7,76,19,0.78,RU,1689981222
444,nguigmi,14.2495,13.1092,29.81,53,8,2.5,NE,1689981222
445,sorong,-0.8833,131.25,25.63,89,59,5.18,ID,1689981222
446,port lincoln,-34.7333,135.8667,12.64,77,49,6.56,AU,1689981222
447,tidjikja,18.5564,-11.4271,33.15,35,4,7.04,MR,1689981222
448,tolanaro,-25.0319,46.9987,17.93,82,94,3.46,MG,1689981222
449,ostersund,63.1792,14.6357,12.01,35,100,5.14,SE,1689981222
450,ketou,7.3633,2.5998,23.51,96,99,2.36,BJ,1689981223
451,bakanas,44.8081,76.2772,27.34,38,0,3.4,KZ,1689981223
452,kibondo,-3.5864,30.7203,16.68,45,11,0.97,TZ,1689980960
453,kuta,-8.7233,115.1723,23.97,88,40,2.06,ID,1689981223
454,puerto lempira,15.2667,-83.7667,28.2,80,100,4.12,HN,1689981223
455,kailua-kona,19.6406,-155.9956,29.17,83,40,5.66,US,1689981223
456,ola,59.5833,151.2833,20.08,87,99,3.35,RU,1689981223
457,kelibia,36.8476,11.0939,30.14,66,0,1.54,TN,1689981224
458,nola,40.922,14.5329,30.36,44,0,0.86,IT,1689981224
459,awjilah,29.1081,21.2869,29.13,46,0,4.42,LY,1689981224
460,bayport,40.7384,-73.0507,27.99,86,40,5.14,US,1689981224
461,kroya,-7.6331,109.2461,21.89,88,30,2.86,ID,1689981224
462,baiti,13.745,-14.7482,28.17,73,64,4.75,SN,1689981224
463,corinto,37.9407,22.9573,27.72,47,0,1.19,GR,1689981225
464,rabo de peixe,37.8,-25.5833,20.73,88,75,1.54,PT,1689981225
465,peace river,56.2501,-117.286,30.17,26,75,1.03,CA,1689981225
466,gornyak,50.9942,81.4661,17.18,83,58,2.75,RU,1689981225
467,sang-e charak,35.8497,66.4369,19.64,39,0,1.34,AF,1689981225
468,mora,11.0461,14.1401,26.28,70,77,1.02,CM,1689981225
469,caleta de carquin,-11.0925,-77.6267,20.24,79,14,4.55,PE,1689981226
470,sardarapat,40.1321,44.0097,25.53,56,1,2.27,AM,1689981226
471,saltillo,25.4167,-101.0,30.81,29,0,7.72,MX,1689980726
472,iskateley,67.6803,53.1512,8.06,94,86,6.04,RU,1689981226
473,lotoshino,56.2267,35.6414,10.99,81,48,4.16,RU,1689981226
474,huanan,46.2167,130.5167,24.29,85,100,1.7,CN,1689981226
475,taybad,34.74,60.7756,25.62,19,0,8.26,IR,1689981078
476,mangai,-4.05,19.5333,24.96,41,79,0.39,CD,1689981227
477,serenje,-13.2325,30.2352,13.06,77,0,3.36,ZM,1689981227
478,toretsk,48.3987,37.8479,16.23,75,7,1.53,UA,1689981227
479,rawson,-43.3002,-65.1023,13.15,44,75,6.23,AR,1689981227
480,kiunga,-6.1219,141.2906,23.04,96,100,1.54,PG,1689981227
481,al bayda',32.7627,21.7551,25.52,34,0,1.71,LY,1689981227
482,mount isa,-20.7333,139.5,14.87,41,0,7.2,AU,1689981227
483,fasa,28.9383,53.6482,26.58,18,0,0.0,IR,1689981228
484,san andres,12.5847,-81.7006,30.01,79,20,5.66,CO,1689981228
485,tangalle,6.024,80.7911,25.8,88,100,5.39,LK,1689981228
486,muang phon-hong,18.4928,102.4172,24.49,95,95,0.75,LA,1689981228
487,hilo,19.7297,-155.09,28.85,71,40,4.63,US,1689981228
488,osakarovka,50.565,72.5692,13.73,83,2,3.73,KZ,1689981228
489,panaba,21.2833,-88.2667,27.42,83,99,3.4,MX,1689981229
490,lockwood,45.8191,-108.4149,34.55,24,40,3.09,US,1689981229
491,ullal,12.8,74.85,24.53,94,75,3.09,IN,1689981229
492,woolgoolga,-30.1106,153.2007,14.93,59,1,7.08,AU,1689981229
493,kabo,7.6994,18.629,22.25,89,100,1.74,CF,1689981229
494,khovd,48.0056,91.6419,18.73,51,74,0.9,MN,1689981229
495,penzance,50.1186,-5.5371,15.38,82,81,5.92,GB,1689980987
496,petropavlovsk-kamchatsky,53.0452,158.6483,19.33,73,0,1.0,RU,1689981230
497,svetlyy,54.675,20.1347,15.03,81,100,2.06,RU,1689981230
498,shima,24.4478,117.8111,30.01,91,100,0.65,CN,1689981230
499,holualoa,19.6228,-155.9522,27.1,83,40,5.66,US,1689981230
500,ta`u,-14.2336,-169.5144,27.67,78,10,3.35,AS,1689981230
501,aasiaat,68.7098,-52.8699,3.53,95,97,5.17,GL,1689981230
502,roma,43.2128,-75.4557,23.54,66,0,6.69,US,1689981231
503,pakpattan,30.341,73.3866,33.62,55,65,2.19,PK,1689981231
504,isabela,6.7085,121.9711,25.03,86,96,2.64,PH,1689981231
505,keflavik,64.0049,-22.5624,12.95,87,100,4.63,IS,1689981231
506,san patricio,28.017,-97.5169,37.4,43,0,6.36,US,1689981232
507,rockport,28.0206,-97.0544,32.83,75,0,5.66,US,1689981232
508,kataba,13.9833,44.3833,22.4,46,99,2.66,YE,1689981232
509,cidreira,-30.1811,-50.2056,17.77,91,32,7.65,BR,1689981232
510,port hedland,-20.3167,118.5667,19.03,26,0,8.75,AU,1689981232
511,quellon,-43.1167,-73.6167,7.14,93,100,1.03,CL,1689981232
512,inca,39.7211,2.9109,26.63,69,73,1.9,ES,1689981232
513,gaspe,48.8334,-64.4819,19.12,94,100,5.14,CA,1689981233
514,nea ionia,38.0373,23.7595,31.45,49,0,1.54,GR,1689981233
515,sinop,41.7711,34.8709,18.25,62,0,1.42,TR,1689981233
516,calama,-22.4667,-68.9333,22.27,5,0,4.12,CL,1689980438
517,pirot,43.1531,22.5861,22.71,54,21,1.83,RS,1689981233
518,volkhov,59.9258,32.3382,14.54,70,100,4.86,RU,1689980954
519,corral de almaguer,39.7545,-3.1865,21.6,29,69,1.98,ES,1689981233
520,cambria,35.5641,-121.0808,43.76,49,55,4.13,US,1689981234
521,el granada,37.5027,-122.4694,36.94,65,0,8.75,US,1689981234
522,klaksvik,62.2266,-6.589,11.51,93,41,4.28,FO,1689981234
523,atbara,17.7022,33.9864,34.28,14,81,0.64,SD,1689981234
524,tavricheskoye,54.5851,73.6395,15.95,93,100,4.0,RU,1689981234
525,antsiranana,-12.2787,49.2917,23.18,70,78,8.31,MG,1689981234
526,meiganga,6.5167,14.3,18.98,96,100,0.25,CM,1689981235
527,castro,-24.7911,-50.0119,14.03,95,10,1.87,BR,1689981235
528,bandar lampung,-5.4254,105.258,22.92,93,59,0.08,ID,1689981235
529,nouadhibou,20.931,-17.0347,21.99,83,1,6.17,MR,1689981235
530,newman,37.3138,-121.0208,41.19,6,0,4.25,US,1689981235
531,coari,-4.085,-63.1414,27.81,49,32,0.36,BR,1689981235
532,birao,10.2849,22.7882,24.93,75,54,1.88,CF,1689981236
533,la resolana,19.6,-104.4333,30.39,68,55,2.0,MX,1689981236
534,farafangana,-22.8167,47.8333,20.01,85,93,4.67,MG,1689981236
535,hami,42.8,93.45,28.11,20,45,3.13,CN,1689981236
536,kirakira,-10.4544,161.9205,27.99,77,98,1.02,SB,1689981236
537,simpang,-1.2667,104.0833,23.67,98,38,1.34,ID,1689981236
538,chake chake,-5.2459,39.7666,24.56,77,35,5.79,TZ,1689981236
539,ihosy,-22.4,46.1167,14.91,93,100,5.91,MG,1689981237
540,uturoa,-16.7333,-151.4333,24.31,65,28,6.29,PF,1689981237
541,ebon,4.582,168.6964,25.05,88,100,2.38,MH,1689981237
542,tangshan,39.6333,118.1833,20.96,94,100,5.14,CN,1689981237
543,yanam,16.7333,82.2167,25.83,85,69,3.83,IN,1689981237
544,vila do maio,15.1333,-23.2167,27.44,81,12,6.35,CV,1689981237
545,touros,-5.1989,-35.4608,24.36,74,0,7.16,BR,1689981238
546,lienz,46.8289,12.769,15.66,94,97,2.39,AT,1689981238
547,vila velha,-20.3297,-40.2925,19.97,83,75,2.06,BR,1689981164
548,alpine,32.835,-116.7664,36.82,38,0,5.14,US,1689981238
549,altai,46.3722,96.2583,13.5,57,0,1.0,MN,1689981238
550,inarajan village,13.2736,144.7484,30.08,90,100,4.48,GU,1689981238
551,ardestan,33.3761,52.3694,30.16,18,48,2.36,IR,1689981239
552,vidisha,23.5333,77.8167,27.49,78,100,2.69,IN,1689981239
553,luocheng,29.3848,104.0286,21.81,92,42,0.34,CN,1689981239
554,fort bragg,35.139,-79.006,33.91,43,0,4.12,US,1689981239
555,fada,9.5667,8.3,20.47,90,99,1.07,NG,1689981239
556,trincomalee,8.5711,81.2335,27.32,77,100,9.96,LK,1689981032
557,puerto baquerizo moreno,-0.9,-89.6,24.5,84,94,6.25,EC,1689981007
558,lazaro cardenas,17.9583,-102.2,30.61,71,22,4.23,MX,1689981152
559,smirnykh,49.75,142.8333,25.11,65,86,0.74,RU,1689981240
560,aripuana,-9.1667,-60.6333,25.89,38,21,0.75,BR,1689981021
561,labytnangi,66.6572,66.4183,18.46,87,100,1.75,RU,1689981240
562,mando,10.7167,6.5667,21.96,89,100,0.46,NG,1689981240
563,pangoa,-12.1167,-73.0,23.61,69,86,0.91,PE,1689981240
564,vitorino freire,-4.0667,-45.1667,24.94,53,12,0.92,BR,1689981240
